{
"type": "FeatureCollection",
"crs": { "type": "name", "properties": { "name": "urn:ogc:def:crs:OGC:1.3:CRS84" } },
                                                                                                                                  
"features": [
{ "type": "Feature", "properties": { "Name": "Addiston and Hedgefield" }, "geometry": { "type": "Point", "coordinates": [ -1.740659752814154, 54.971241788010957 ] } },
{ "type": "Feature", "properties": { "Name": "Baal Hill" }, "geometry": { "type": "Point", "coordinates": [ -1.886580995108683, 54.74141390418373 ] } },
{ "type": "Feature", "properties": { "Name": "Barlow Burn" }, "geometry": { "type": "Point", "coordinates": [ -1.748576729389259, 54.954184539714426 ] } },
{ "type": "Feature", "properties": { "Name": "Bishop Middleham Quarry" }, "geometry": { "type": "Point", "coordinates": [ -1.48962588171939, 54.687372360003074 ] } },
{ "type": "Feature", "properties": { "Name": "Blackhill Rocks and Cross Gill" }, "geometry": { "type": "Point", "coordinates": [ -1.268387730201551, 54.741058829859035 ] } },
{ "type": "Feature", "properties": { "Name": "Burnhope Pond" }, "geometry": { "type": "Point", "coordinates": [ -1.71668287227542, 54.82650824975736 ] } },
{ "type": "Feature", "properties": { "Name": "Chopwell Meadows" }, "geometry": { "type": "Point", "coordinates": [ -1.677387002138191, 54.679030527470815 ] } },
{ "type": "Feature", "properties": { "Name": "Cross Lane Meadows" }, "geometry": { "type": "Point", "coordinates": [ -1.825238867739942, 54.919272289562386 ] } },
{ "type": "Feature", "properties": { "Name": "Edmondsley Wood" }, "geometry": { "type": "Point", "coordinates": [ -1.64187621916462, 54.837094550914792 ] } },
{ "type": "Feature", "properties": { "Name": "Hawthorn Dene" }, "geometry": { "type": "Point", "coordinates": [ -1.341889063522234, 54.806183972682597 ] } },
{ "type": "Feature", "properties": { "Name": "Hedlehope Fell" }, "geometry": { "type": "Point", "coordinates": [ -1.769940534590095, 54.767309963123701 ] } },
{ "type": "Feature", "properties": { "Name": "Hesleden Dene" }, "geometry": { "type": "Point", "coordinates": [ -1.316655479852838, 54.734150903185515 ] } },
{ "type": "Feature", "properties": { "Name": "High Wood" }, "geometry": { "type": "Point", "coordinates": [ -1.803485160537337, 54.901266501824459 ] } },
{ "type": "Feature", "properties": { "Name": "Joe's Pond" }, "geometry": { "type": "Point", "coordinates": [ -1.492484682465245, 54.831170441053089 ] } },
{ "type": "Feature", "properties": { "Name": "Lamsley Pastures" }, "geometry": { "type": "Point", "coordinates": [ -1.610010932101634, 54.912482305113883 ] } },
{ "type": "Feature", "properties": { "Name": "Longburnford Quarry" }, "geometry": { "type": "Point", "coordinates": [ -1.891091570593761, 54.797134348787864 ] } },
{ "type": "Feature", "properties": { "Name": "Malton" }, "geometry": { "type": "Point", "coordinates": [ -1.721475924416449, 54.808546407106569 ] } },
{ "type": "Feature", "properties": { "Name": "Milkwellburn Wood" }, "geometry": { "type": "Point", "coordinates": [ -1.823729764559902, 54.907587927108956 ] } },
{ "type": "Feature", "properties": { "Name": "Rabbitbank Wood" }, "geometry": { "type": "Point", "coordinates": [ -1.828739852199846, 54.829413717929029 ] } },
{ "type": "Feature", "properties": { "Name": "Ragpath Heath" }, "geometry": { "type": "Point", "coordinates": [ -1.774438452136492, 54.796973855672825 ] } },
{ "type": "Feature", "properties": { "Name": "Raisby Hill Grassland" }, "geometry": { "type": "Point", "coordinates": [ -1.478410946272681, 54.715183477036291 ] } },
{ "type": "Feature", "properties": { "Name": "Redcar Field" }, "geometry": { "type": "Point", "coordinates": [ -1.549840300188168, 54.572579846703221 ] } },
{ "type": "Feature", "properties": { "Name": "Shibdon Pond and Meadows" }, "geometry": { "type": "Point", "coordinates": [ -1.701694124720734, 54.959470426440866 ] } },
{ "type": "Feature", "properties": { "Name": "Stanley Moss" }, "geometry": { "type": "Point", "coordinates": [ -1.766981615916125, 54.741243342104866 ] } },
{ "type": "Feature", "properties": { "Name": "Town Kelloe Bank" }, "geometry": { "type": "Point", "coordinates": [ -1.441010489792987, 54.725800937400649 ] } },
{ "type": "Feature", "properties": { "Name": "Trimdon Grange Quarry" }, "geometry": { "type": "Point", "coordinates": [ -1.439668530116756, 54.710517328018021 ] } },
{ "type": "Feature", "properties": { "Name": "Tudhoe Mill Wood" }, "geometry": { "type": "Point", "coordinates": [ -1.610365735566948, 54.713881750023866 ] } },
{ "type": "Feature", "properties": { "Name": "Westfield Pasture" }, "geometry": { "type": "Point", "coordinates": [ -1.776548019759289, 54.978501908797199 ] } }
]
}
